[{"name":"Jerry","address":"0xf39Fd6e51aad88F6F4ce6aB8827279cffFb92266","location":"Jerry's location","message":"Message"},{"name":"Jerry","address":"0xf39Fd6e51aad88F6F4ce6aB8827279cffFb92266","location":"Jerry's location","message":"Message 2"},{"name":"Jerry","address":"0xf39Fd6e51aad88F6F4ce6aB8827279cffFb92266","location":"Jerry's location","message":"Message"},{"name":"Jerry","address":"0xf39Fd6e51aad88F6F4ce6aB8827279cffFb92266","location":"Jerry's location","message":"Message"},{"name":"Not Jerry","address":"0xf39Fd6e51aad88F6F4ce6aB8827279cffFb92266","location":"Atlanta","message":"Thank you!!!"},{"name":"Jerry","address":"0xf39Fd6e51aad88F6F4ce6aB8827279cffFb92266","location":"Jerry's location","message":"WHAT IF I SEND A REAAAAAEAEEAEAEEAEEAEAEEEAEAELLLYYYYYYYLLYYYYYYYYYYYYYYYYYYYYYYYYYYYYYYYYYYYYYYYYYYYYYYYYYYYY LONGGGGGGGGGGGG MESSAAAAAAAAAAAAAAAAAAAAGEEEEEEEE!!!!!!!!!!!!!!!!!!??????!!!!!!!!!?????????!?!?!??!?!?!??!?!?!?!??!?!?!?!?!??!?!?!"},{"name":"Jerry","address":"0xf39Fd6e51aad88F6F4ce6aB8827279cffFb92266","location":"Jerry's location","message":"Message"},{"name":"Jerry","address":"0xf39Fd6e51aad88F6F4ce6aB8827279cffFb92266","location":"Jerry's location","message":"Message"},{"name":"Jerry","address":"0xf39Fd6e51aad88F6F4ce6aB8827279cffFb92266","location":"Jerry's location","message":"New message"},{"name":"0xC8834C1FcF0Df6623Fc8C8eD25064A4148D99388","address":"0xf39Fd6e51aad88F6F4ce6aB8827279cffFb92266","location":"unspecified","message":"Thank you!"},{"name":"0xC8834C1FcF0Df6623Fc8C8eD25064A4148D99388","address":"0xf39Fd6e51aad88F6F4ce6aB8827279cffFb92266","location":"unspecified","message":"Thank you!"},{"name":"0xC8834C1FcF0Df6623Fc8C8eD25064A4148D99388","address":"0xf39Fd6e51aad88F6F4ce6aB8827279cffFb92266","location":"unspecified","message":"Thank you!"},{"name":"0xC8834C1FcF0Df6623Fc8C8eD25064A4148D99388","address":"0xf39Fd6e51aad88F6F4ce6aB8827279cffFb92266","location":"unspecified","message":"Thank you!"},{"name":"0xC8834C1FcF0Df6623Fc8C8eD25064A4148D99388","address":"0xf39Fd6e51aad88F6F4ce6aB8827279cffFb92266","location":"unspecified","message":"Thank you!"},{"name":"0xC8834C1FcF0Df6623Fc8C8eD25064A4148D99388","address":"0xf39Fd6e51aad88F6F4ce6aB8827279cffFb92266","location":"unspecified","message":"Thank you!"},{"name":"0xC8834C1FcF0Df6623Fc8C8eD25064A4148D99388","address":"0xC8834C1FcF0Df6623Fc8C8eD25064A4148D99388","location":"unspecified","message":"Thank you!"},{"name":"0xC8834C1FcF0Df6623Fc8C8eD25064A4148D99388","address":"0xC8834C1FcF0Df6623Fc8C8eD25064A4148D99388","location":"unspecified","message":"Thank you!"}]